[
  {
    "name": "Mama’s 鐵鍋早午餐",
    "type": "早午餐",
    "value": "4.0",
    "address": "台北市和平東路二段331巷43弄42號",
    "phone": "02 2708-8159",
    "time": "08:00 ~ 16:00",
    "distance": "700公尺",
    "latitude": 25.025671437645165,
    "longitude": 121.54614595535003
  },
  {
    "name": "真芳炭烤土司",
    "type": "早午餐",
    "value": "4.0",
    "address": "台北市大安區和平東路二段209號106",
    "phone": "02 2706-2996",
    "time": "07:30 ~ 13:30",
    "distance": "220公尺",
    "latitude": 25.02685508745195,
    "longitude": 121.54267608664678
  },
  {
    "name": "JOY.S LOVE就是愛",
    "type": "早午餐",
    "value": "3.0",
    "address": "台北市大安區和平東路二段118巷4號",
    "phone": "0987-020-554",
    "time": "11:30 ~ 19:30",
    "distance": "350公尺",
    "latitude": 25.024842358971785,
    "longitude": 121.54266220734328
  },
  {
    "name": "好食",
    "type": "早午餐",
    "value": "5.0",
    "address": "台北市大安區和平東路二段357巷7號",
    "phone": "02 2755-4066",
    "time": "07:30 ~ 15:00",
    "distance": "350公尺",
    "latitude": 25.025565767683275,
    "longitude": 121.54644642929468
  },
  {
    "name": "蘇草salvia",
    "type": "早午餐",
    "value": "3.0",
    "address": "台北市大安區辛亥路二段209號",
    "phone": "02 2377-2389",
    "time": "11:00 ~ 21:00",
    "distance": "600公尺",
    "latitude": 25.021885131594935,
    "longitude": 121.5424189400073
  },
  {
    "name": "早安有喜",
    "type": "早午餐",
    "value": "4.0",
    "address": "台北市大安區和平東路二段117號",
    "phone": "02 2325-0355",
    "time": "06:00 ~ 13:00",
    "distance": "450公尺",
    "latitude": 25.034848028646497,
    "longitude": 121.54183682956152
  },
  {
    "name": "玖遛早吃",
    "type": "早午餐",
    "value": "4.0",
    "address": "台北市大安區和平東路三段96號",
    "phone": "02 2738-3442",
    "time": "07:00 ~ 15:00",
    "distance": "650公尺",
    "latitude": 25.024503369824377,
    "longitude": 121.55130545719949
  },
  {
    "name": "三隻貓頭鷹",
    "type": "早午餐",
    "value": "3.0",
    "address": "台北市大安區和平東路二段96巷15弄38號",
    "phone": "02 2377-0995",
    "time": "11:00 ~ 21:00",
    "distance": "350公尺",
    "latitude": 25.023494571982194,
    "longitude": 121.54262811117161
  },
  {
    "name": "Stoppage 補時",
    "type": "早午餐",
    "value": "3.0",
    "address": "台北市大安區和平東路二段96巷15弄30號",
    "phone": "02 2736-6506",
    "time": "11:00 ~ 22:00",
    "distance": "400公尺",
    "latitude": 25.023520440274336,
    "longitude": 121.54225489593541
  },
  {
    "name": "Goee coffee",
    "type": "早午餐",
    "value": "4.0",
    "address": "台北市大安區大安路二段293號",
    "phone": "02 2700-5198",
    "time": "07:00 ~ 18:00",
    "distance": "98公尺",
    "latitude": 25.02682848940169,
    "longitude": 121.54500350829412
  },
  {
    "name": "辛川屋",
    "type": "午晚餐",
    "value": "3.0",
    "address": "台北市和平東路二段331號",
    "phone": "02 2700-6131",
    "time": "11:00 ~ 21:00",
    "distance": "100公尺",
    "latitude": 25.025235746607866,
    "longitude": 121.5455554130213
  },
  {
    "name": "I’m pasta",
    "type": "午晚餐",
    "value": "4.0",
    "address": "台北市大安和平東路二段118巷50號",
    "phone": "02 2735-3535",
    "time": "11:00 ~ 15:30 / 17:00 ~ 20:30",
    "distance": "450公尺",
    "latitude": 25.022711164416414,
    "longitude": 121.54286482836382
  },
  {
    "name": "梧貳WUERFOODS",
    "type": "午晚餐",
    "value": "4.0",
    "address": "台北市大安區和平東路二段118巷56號",
    "phone": "0972-468-890",
    "time": "11:00 ~ 14:00 / 17:00 ~ 20:00",
    "distance": "500公尺",
    "latitude": 25.022151474854986,
    "longitude": 121.54274499767854
  },
  {
    "name": "初宅",
    "type": "午晚餐",
    "value": "3.0",
    "address": "台北市大安區和平東路二段175巷35號",
    "phone": "02 2700-5572",
    "time": "11:30 ~ 15:00 / 17:00 ~ 21:00",
    "distance": "500公尺",
    "latitude": 25.027411425159336,
    "longitude": 121.54189024649862
  },
  {
    "name": "新丼",
    "type": "午晚餐",
    "value": "4.0",
    "address": "台北市大安區和平東路二段118巷45號",
    "phone": "02 2255-2252",
    "time": "11:30 ~ 21:30",
    "distance": "50公尺",
    "latitude": 25.023181899605774,
    "longitude": 121.54298992347353
  },
  {
    "name": "厚宅",
    "type": "午晚餐",
    "value": "4.0",
    "address": "台北市大安區羅斯福路四段1號",
    "phone": "02 8732-6080",
    "time": "11:00 ~ 14:00 / 17:00 ~ 20:00",
    "distance": "1.9公里",
    "latitude": 25.015195081412383,
    "longitude": 121.53499856580098
  },
  {
    "name": "高和食堂",
    "type": "午晚餐",
    "value": "4.0",
    "address": "台北市大安區和平東路118巷60號",
    "phone": "02 7709-8815",
    "time": "11:30 ~ 20:00",
    "distance": "500公尺",
    "latitude": 25.02215584053187,
    "longitude": 121.54269923815777
  },
  {
    "name": "李記水餃",
    "type": "午晚餐",
    "value": "4.0",
    "address": "台北市大安區和平東路二段118巷54弄1號",
    "phone": "02 2736-7202",
    "time": "11:00 ~ 14:00 / 17:00 ~ 20:00",
    "distance": "500公尺",
    "latitude": 25.022182472632586,
    "longitude": 121.54277700611314
  },
  {
    "name": "人从众厚切牛排",
    "type": "午晚餐",
    "value": "5.0",
    "address": "台北市大安區復興南路二段118巷146號",
    "phone": "02 2706-0688",
    "time": "11:00 ~ 01:00",
    "distance": "50公尺",
    "latitude": 25.028724411195913,
    "longitude": 121.54328765534987
  },
  {
    "name": "鬼匠拉麵2",
    "type": "午晚餐",
    "value": "4.0",
    "address": "台北市大安區和平東路二段118巷2號",
    "phone": "02 2736-6998",
    "time": "11:00 ~ 20:00（週六公休）",
    "distance": "200公尺",
    "latitude": 25.024882803981463,
    "longitude": 121.54277722651419
  },
  {
    "name": "五九麵館",
    "type": "午晚餐",
    "value": "3.0",
    "address": "台北市大安區和平東路二段118巷59號",
    "phone": "02 2736-6759",
    "time": "11:00 ~ 15:00 / 16:30 ~ 20:30",
    "distance": "450公尺",
    "latitude": 25.02269070814958,
    "longitude": 121.54291469767858
  },
  {
    "name": "邦食堂",
    "type": "午晚餐",
    "value": "4.0",
    "address": "台北市大安區和平東路二段96巷17弄28號",
    "phone": "02 2736-1316",
    "time": "11:30 ~ 14:00 / 17:30 ~ 20:00",
    "distance": "50公尺",
    "latitude": 25.023141741854023,
    "longitude": 121.54257008233601
  },
  {
    "name": "樂和牛排",
    "type": "午晚餐",
    "value": "4.0",
    "address": "台北市大安區和平東路二段118巷4弄2號",
    "phone": "02 2737-0600",
    "time": "11:30 ~ 23:00",
    "distance": "290公尺",
    "latitude": 25.024385083212962,
    "longitude": 121.54276916884288
  },
  {
    "name": "能量小姐",
    "type": "午晚餐",
    "value": "3.0",
    "address": "台北市大安區和平東路二段201號",
    "phone": "02 2708-6728",
    "time": "11:00 ~ 14:00 / 16:00 ~ 20:00",
    "distance": "250公尺",
    "latitude": 25.02544719476196,
    "longitude": 121.54231539767875
  },
  {
    "name": "雪人兄弟",
    "type": "甜點類",
    "value": "5.0",
    "address": "台北市大安區大安路一段194號",
    "phone": "02 2703-6563",
    "time": "13:00 ~ 22:00",
    "distance": "220公尺",
    "latitude": 25.025918966796045,
    "longitude": 121.54456064185678
  },
  {
    "name": "Rufous coffee",
    "type": "甜點類",
    "value": "3.0",
    "address": "台北市大安區基隆路二段266號",
    "phone": "02 2736-6881",
    "time": "11:00 ~ 18:30",
    "distance": "800公尺",
    "latitude": 25.022479844566885,
    "longitude": 121.54978542732086
  },
  {
    "name": "提拉米蘇",
    "type": "甜點類",
    "value": "4.0",
    "address": "台北市大安區復興南路二段162號",
    "phone": "02 2325-6578",
    "time": "10:00 ~ 20:00",
    "distance": "450公尺",
    "latitude": 25.027970155249346,
    "longitude": 121.54325672651439
  },
  {
    "name": "空杯",
    "type": "飲料類",
    "value": "3.0",
    "address": "台北市大安區和平東路二段118巷52弄1號",
    "phone": "02 2738-8358",
    "time": "11:00 ~ 21:30",
    "distance": "450公尺",
    "latitude": 25.022626073839806,
    "longitude": 121.54272652651424
  },
  {
    "name": "MTB 米提銀行",
    "type": "飲料類",
    "value": "4.0",
    "address": "台北市大安區復興南路二段327號",
    "phone": "02 2738-9238",
    "time": "10:00 ~ 19:30",
    "distance": "230公尺",
    "latitude": 25.024066449016402,
    "longitude": 121.54356449767863
  }
]
